[
  {
    "city": "Abohar",
    "state": "Punjab",
    "district": "Fazilka",
    "latitude": 30.1452928,
    "longitude": 74.1993043
  },
  {
    "city": "Achalpur",
    "state": "Maharashtra",
    "district": "Amravati",
    "latitude": 21.257584,
    "longitude": 77.5086754
  },
  {
    "city": "Adilabad",
    "state": "Telangana",
    "district": "Adilabad",
    "latitude": 19.676527,
    "longitude": 78.532194
  },
  {
    "city": "Adoni",
    "state": "Andhra Pradesh",
    "district": "Kurnool",
    "latitude": 15.6322227,
    "longitude": 77.2728368
  },
  {
    "city": "Agartala",
    "state": "Tripura",
    "district": "West Tripura",
    "latitude": 23.831457,
    "longitude": 91.2867777
  },
  {
    "city": "Agra",
    "state": "Uttar Pradesh",
    "district": "Agra",
    "latitude": 27.1766701,
    "longitude": 78.0080745
  },
  {
    "city": "Ahmedabad",
    "state": "Gujarat",
    "district": "Ahmedabad",
    "latitude": 23.022505,
    "longitude": 72.5713621
  },
  {
    "city": "Ahmednagar",
    "state": "Maharashtra",
    "district": "Ahmednagar",
    "latitude": 19.0952075,
    "longitude": 74.7495916
  },
  {
    "city": "Aizawl",
    "state": "Mizoram",
    "district": "Aizwal",
    "latitude": 23.727107,
    "longitude": 92.7176389
  },
  {
    "city": "Ajmer",
    "state": "Rajasthan",
    "district": "Ajmer",
    "latitude": 26.4498954,
    "longitude": 74.6399163
  },
  {
    "city": "Akbarpur",
    "state": "Uttar Pradesh",
    "district": "Ambedkar Nagar",
    "latitude": 26.4407468,
    "longitude": 82.5537514
  },
  {
    "city": "Akola",
    "state": "Maharashtra",
    "district": "Akola",
    "latitude": 20.7059345,
    "longitude": 77.0219019
  },
  {
    "city": "Akot",
    "state": "Maharashtra",
    "district": "Akola",
    "latitude": 21.0973361,
    "longitude": 77.053568
  },
  {
    "city": "Alappuzha",
    "state": "Kerala",
    "district": "Alappuzha",
    "latitude": 9.4980667,
    "longitude": 76.3388484
  },
  {
    "city": "Alappuzha",
    "state": "Kerala",
    "district": "Alappuzha",
    "latitude": 9.4980667,
    "longitude": 76.3388484
  },
  {
    "city": "Aligarh",
    "state": "Uttar Pradesh",
    "district": "Aligarh",
    "latitude": 27.8973944,
    "longitude": 78.0880129
  },
  {
    "city": "Alipurduar",
    "state": "West Bengal",
    "district": "Alipurduar",
    "latitude": 26.4918891,
    "longitude": 89.5271026
  },
  {
    "city": "Allahabad",
    "state": "Uttar Pradesh",
    "district": "Allahabad",
    "latitude": 25.4358011,
    "longitude": 81.846311
  },
  {
    "city": "Alwar",
    "state": "Rajasthan",
    "district": "Alwar",
    "latitude": 27.5529907,
    "longitude": 76.6345735
  },
  {
    "city": "Amalner",
    "state": "Maharashtra",
    "district": "Jalgaon",
    "latitude": 21.0419208,
    "longitude": 75.0581943
  },
  {
    "city": "Amaravati",
    "state": "Andhra Pradesh",
    "district": "Guntur",
    "latitude": 16.574517,
    "longitude": 80.359012
  },
  {
    "city": "Ambala",
    "state": "Haryana",
    "district": "Ambala",
    "latitude": 30.3781788,
    "longitude": 76.7766974
  },
  {
    "city": "Ambikapur",
    "state": "Chhattisgarh",
    "district": "Surguja",
    "latitude": 23.1354921,
    "longitude": 83.1817856
  },
  {
    "city": "Ambur",
    "state": "Tamil Nadu",
    "district": "Vellore",
    "latitude": 12.7903613,
    "longitude": 78.7166084
  },
  {
    "city": "Amravati",
    "state": "Maharashtra",
    "district": "Amravati",
    "latitude": 20.9374238,
    "longitude": 77.7795513
  },
  {
    "city": "Amreli",
    "state": "Gujarat",
    "district": "Amreli",
    "latitude": 21.6031774,
    "longitude": 71.2220832
  },
  {
    "city": "Amreli",
    "state": "Gujarat",
    "district": "Amreli",
    "latitude": 21.6031774,
    "longitude": 71.2220832
  },
  {
    "city": "Amritsar",
    "state": "Punjab",
    "district": "Amritsar",
    "latitude": 31.6339793,
    "longitude": 74.8722642
  },
  {
    "city": "Amroha",
    "state": "Uttar Pradesh",
    "district": "Amroha",
    "latitude": 28.9043537,
    "longitude": 78.4673426
  },
  {
    "city": "Anand",
    "state": "Gujarat",
    "district": "Anand",
    "latitude": 22.5645175,
    "longitude": 72.928871
  },
  {
    "city": "Anantapur",
    "state": "Andhra Pradesh",
    "district": "Anantapur",
    "latitude": 14.6818877,
    "longitude": 77.6005911
  },
  {
    "city": "Anantnag",
    "state": "Jammu and Kashmir",
    "district": "Anantnag",
    "latitude": 33.704949,
    "longitude": 75.247874
  },
  {
    "city": "Ankleshwar",
    "state": "Gujarat",
    "district": "Bharuch",
    "latitude": 21.6264236,
    "longitude": 73.0151984
  },
  {
    "city": "Arrah",
    "state": "Bihar",
    "district": "Bhojpur",
    "latitude": 25.5560443,
    "longitude": 84.6603307
  },
  {
    "city": "Asansol",
    "state": "West Bengal",
    "district": "Bardhaman",
    "latitude": 23.6739452,
    "longitude": 86.9523954
  },
  {
    "city": "Auraiya",
    "state": "Uttar Pradesh",
    "district": "Auraiya",
    "latitude": 26.4625957,
    "longitude": 79.5097549
  },
  {
    "city": "Aurangabad",
    "state": "Bihar",
    "district": "Aurangabad",
    "latitude": 24.7457189,
    "longitude": 84.3804888
  },
  {
    "city": "Aurangabad",
    "state": "Maharashtra",
    "district": "Aurangabad",
    "latitude": 19.8761653,
    "longitude": 75.3433139
  },
  {
    "city": "Azamgarh",
    "state": "Uttar Pradesh",
    "district": "Azamgarh",
    "latitude": 26.0737044,
    "longitude": 83.1859458
  },
  {
    "city": "Bagaha",
    "state": "Bihar",
    "district": "West Champaran",
    "latitude": 27.128635,
    "longitude": 84.062203
  },
  {
    "city": "Bagalkot",
    "state": "Karnataka",
    "district": "Bagalkot",
    "latitude": 16.1725355,
    "longitude": 75.6557206
  },
  {
    "city": "Bahadurgarh",
    "state": "Haryana",
    "district": "Jhajjar",
    "latitude": 28.6924464,
    "longitude": 76.9239727
  },
  {
    "city": "Baharampur",
    "state": "West Bengal",
    "district": "Murshidabad",
    "latitude": 24.164895,
    "longitude": 88.274906
  },
  {
    "city": "Bahraich",
    "state": "Uttar Pradesh",
    "district": "Bahraich",
    "latitude": 27.5708377,
    "longitude": 81.5980246
  },
  {
    "city": "Balaghat",
    "state": "Madhya Pradesh",
    "district": "Balaghat",
    "latitude": 21.812876,
    "longitude": 80.1838293
  },
  {
    "city": "Balangir",
    "state": "Odisha",
    "district": "Balangir",
    "latitude": 20.7074234,
    "longitude": 83.4842725
  },
  {
    "city": "Balasore",
    "state": "Odisha",
    "district": "Balasore",
    "latitude": 21.504467,
    "longitude": 86.922227
  },
  {
    "city": "Ballia",
    "state": "Uttar Pradesh",
    "district": "Ballia",
    "latitude": 25.7584381,
    "longitude": 84.1487319
  },
  {
    "city": "Balurghat",
    "state": "West Bengal",
    "district": "Dakshin Dinajpur",
    "latitude": 25.2372834,
    "longitude": 88.7830612
  },
  {
    "city": "Banda",
    "state": "Uttar Pradesh",
    "district": "Banda",
    "latitude": 25.4796224,
    "longitude": 80.3380213
  },
  {
    "city": "Bangaon",
    "state": "West Bengal",
    "district": "North 24 Parganas",
    "latitude": 23.0440381,
    "longitude": 88.827703
  },
  {
    "city": "Bankura",
    "state": "West Bengal",
    "district": "Bankura",
    "latitude": 23.2324146,
    "longitude": 87.0786044
  },
  {
    "city": "Banswara",
    "state": "Rajasthan",
    "district": "Banswara",
    "latitude": 23.5461394,
    "longitude": 74.4349761
  },
  {
    "city": "Barabanki",
    "state": "Uttar Pradesh",
    "district": "Barabanki",
    "latitude": 26.9400001,
    "longitude": 81.19
  },
  {
    "city": "Baran",
    "state": "Rajasthan",
    "district": "Baran",
    "latitude": 25.1011438,
    "longitude": 76.5131637
  },
  {
    "city": "Baraut",
    "state": "Uttar Pradesh",
    "district": "Baghput",
    "latitude": 29.099112,
    "longitude": 77.256551
  },
  {
    "city": "Bardhaman",
    "state": "West Bengal",
    "district": "Bardhaman",
    "latitude": 23.2324214,
    "longitude": 87.8614793
  },
  {
    "city": "Bareilly",
    "state": "Uttar Pradesh",
    "district": "Bareilly",
    "latitude": 28.3670355,
    "longitude": 79.4304381
  },
  {
    "city": "Baripada",
    "state": "Odisha",
    "district": "Mayurbhanj",
    "latitude": 21.9322338,
    "longitude": 86.7516942
  },
  {
    "city": "Barmer",
    "state": "Rajasthan",
    "district": "Barmer",
    "latitude": 25.7531537,
    "longitude": 71.4180622
  },
  {
    "city": "Barnala",
    "state": "Punjab",
    "district": "Barnala",
    "latitude": 30.3819446,
    "longitude": 75.5467979
  },
  {
    "city": "Barshi",
    "state": "Maharashtra",
    "district": "Solapur",
    "latitude": 18.2333856,
    "longitude": 75.6941478
  },
  {
    "city": "Basirhat",
    "state": "West Bengal",
    "district": "North 24 Parganas",
    "latitude": 22.6574017,
    "longitude": 88.8671766
  },
  {
    "city": "Basti",
    "state": "Uttar Pradesh",
    "district": "Basti",
    "latitude": 26.8176796,
    "longitude": 82.7633133
  },
  {
    "city": "Batala",
    "state": "Punjab",
    "district": "Gurdaspur",
    "latitude": 31.8183238,
    "longitude": 75.2070644
  },
  {
    "city": "Bathinda",
    "state": "Punjab",
    "district": "Bathinda",
    "latitude": 30.210994,
    "longitude": 74.9454745
  },
  {
    "city": "Beawar",
    "state": "Rajasthan",
    "district": "Beawar",
    "latitude": 26.1007337,
    "longitude": 74.3190747
  },
  {
    "city": "Beed",
    "state": "Maharashtra",
    "district": "Beed",
    "latitude": 18.9890893,
    "longitude": 75.7600785
  },
  {
    "city": "Begusarai",
    "state": "Bihar",
    "district": "Begusarai",
    "latitude": 25.416675,
    "longitude": 86.1293792
  },
  {
    "city": "Belgaum",
    "state": "Karnataka",
    "district": "Belagavi",
    "latitude": 15.8496953,
    "longitude": 74.4976741
  },
  {
    "city": "Bellary",
    "state": "Karnataka",
    "district": "Ballari",
    "latitude": 15.1393932,
    "longitude": 76.9214428
  },
  {
    "city": "Bengaluru",
    "state": "Karnataka",
    "district": "Bengaluru Urban",
    "latitude": 12.9715987,
    "longitude": 77.5945627
  },
  {
    "city": "Berhampur",
    "state": "Odisha",
    "district": "Ganjam",
    "latitude": 19.314914,
    "longitude": 84.794244
  },
  {
    "city": "Bettiah",
    "state": "Bihar",
    "district": "West Champaran",
    "latitude": 26.8028048,
    "longitude": 84.5169757
  },
  {
    "city": "Betul",
    "state": "Madhya Pradesh",
    "district": "Betul",
    "latitude": 21.9108031,
    "longitude": 77.9011842
  },
  {
    "city": "Bhadohi",
    "state": "Uttar Pradesh",
    "district": "Sant Ravidas Nagar",
    "latitude": 25.38727,
    "longitude": 82.5680309
  },
  {
    "city": "Bhadrak",
    "state": "Odisha",
    "district": "Bhadrak",
    "latitude": 21.0582737,
    "longitude": 86.4958396
  },
  {
    "city": "Bhadravati",
    "state": "Karnataka",
    "district": "Shimoga",
    "latitude": 13.8329901,
    "longitude": 75.7080727
  },
  {
    "city": "Bhagalpur",
    "state": "Bihar",
    "district": "Bhagalpur",
    "latitude": 25.2414303,
    "longitude": 86.9924358
  },
  {
    "city": "Bhandara",
    "state": "Maharashtra",
    "district": "Bhandara",
    "latitude": 21.1750113,
    "longitude": 79.6558242
  },
  {
    "city": "Bharatpur",
    "state": "Rajasthan",
    "district": "Bharatpur",
    "latitude": 27.216981,
    "longitude": 77.489515
  },
  {
    "city": "Bharuch",
    "state": "Gujarat",
    "district": "Bharuch",
    "latitude": 21.701963,
    "longitude": 72.99996
  },
  {
    "city": "Bhavnagar",
    "state": "Gujarat",
    "district": "Bhavnagar",
    "latitude": 21.768064,
    "longitude": 72.147388
  },
  {
    "city": "Bhilwara",
    "state": "Rajasthan",
    "district": "Bhilwara",
    "latitude": 25.321377,
    "longitude": 74.586953
  },
  {
    "city": "Bhimavaram",
    "state": "Andhra Pradesh",
    "district": "West",
    "latitude": 16.544709,
    "longitude": 81.520593
  },
  {
    "city": "Bhind",
    "state": "Madhya Pradesh",
    "district": "Bhind",
    "latitude": 26.5587354,
    "longitude": 78.7872876
  },
  {
    "city": "Bhiwadi",
    "state": "Rajasthan",
    "district": "Alwar",
    "latitude": 28.2088218,
    "longitude": 76.8445999
  },
  {
    "city": "Bhiwandi",
    "state": "Maharashtra",
    "district": "Thane",
    "latitude": 19.2812547,
    "longitude": 73.0482912
  },
  {
    "city": "Bhiwani",
    "state": "Haryana",
    "district": "Bhiwani",
    "latitude": 28.7990445,
    "longitude": 76.1335112
  },
  {
    "city": "Bhopal",
    "state": "Madhya Pradesh",
    "district": "Bhopal",
    "latitude": 23.2599333,
    "longitude": 77.412615
  },
  {
    "city": "Bhubaneswar",
    "state": "Odisha",
    "district": "Khurda",
    "latitude": 20.295515,
    "longitude": 85.824797
  },
  {
    "city": "Bhuj",
    "state": "Gujarat",
    "district": "Kutch",
    "latitude": 23.2419997,
    "longitude": 69.6669324
  },
  {
    "city": "Bhusawal",
    "state": "Maharashtra",
    "district": "Jalgaon",
    "latitude": 21.0455204,
    "longitude": 75.8010962
  },
  {
    "city": "Bidar",
    "state": "Karnataka",
    "district": "Bidar",
    "latitude": 17.9148799,
    "longitude": 77.5046101
  },
  {
    "city": "Bihar Sharif",
    "state": "Bihar",
    "district": "Nalanda",
    "latitude": 25.1982147,
    "longitude": 85.5148735
  },
  {
    "city": "Bijapur",
    "state": "Karnataka",
    "district": "Vijayapur",
    "latitude": 16.8301708,
    "longitude": 75.710031
  },
  {
    "city": "Bijnor",
    "state": "Uttar Pradesh",
    "district": "Bijnor",
    "latitude": 29.3724422,
    "longitude": 78.1358472
  },
  {
    "city": "Bikaner",
    "state": "Rajasthan",
    "district": "Bikaner",
    "latitude": 28.0229348,
    "longitude": 73.3119159
  },
  {
    "city": "Bilaspur",
    "state": "Chhattisgarh",
    "district": "Bilaspur",
    "latitude": 22.0796251,
    "longitude": 82.1391412
  },
  {
    "city": "Bokaro Steel City",
    "state": "Jharkhand",
    "district": "Bokaro",
    "latitude": 23.6692956,
    "longitude": 86.151112
  },
  {
    "city": "Bolpur",
    "state": "West Bengal",
    "district": "Birbhum",
    "latitude": 23.6686892,
    "longitude": 87.6827676
  },
  {
    "city": "Bongaigaon",
    "state": "Assam",
    "district": "Bongaigaon",
    "latitude": 26.5009992,
    "longitude": 90.5352356
  },
  {
    "city": "Botad",
    "state": "Gujarat",
    "district": "Botad",
    "latitude": 22.1704232,
    "longitude": 71.6684269
  },
  {
    "city": "Budaun",
    "state": "Uttar Pradesh",
    "district": "Budaun",
    "latitude": 28.0337088,
    "longitude": 79.1205419
  },
  {
    "city": "Bulandshahr",
    "state": "Uttar Pradesh",
    "district": "Bulandshahr",
    "latitude": 28.406963,
    "longitude": 77.8498292
  },
  {
    "city": "Bundi",
    "state": "Rajasthan",
    "district": "Bundi",
    "latitude": 25.4305144,
    "longitude": 75.6499025
  },
  {
    "city": "Burhanpur",
    "state": "Madhya Pradesh",
    "district": "Burhanpur",
    "latitude": 21.3193875,
    "longitude": 76.2224273
  },
  {
    "city": "Buxar",
    "state": "Bihar",
    "district": "Buxar",
    "latitude": 25.5647103,
    "longitude": 83.9777482
  },
  {
    "city": "Calicut",
    "state": "Kerala",
    "district": "Kozhikode",
    "latitude": 11.2587531,
    "longitude": 75.78041
  },
  {
    "city": "Chakdaha",
    "state": "West Bengal",
    "district": "Nadia",
    "latitude": 23.047858,
    "longitude": 88.5130144
  },
  {
    "city": "Chalisgaon",
    "state": "Maharashtra",
    "district": "Jalgaon",
    "latitude": 20.4640778,
    "longitude": 74.9968543
  },
  {
    "city": "Chandausi",
    "state": "Uttar Pradesh",
    "district": "Sambhal",
    "latitude": 28.4480507,
    "longitude": 78.7796105
  },
  {
    "city": "Chandigarh",
    "state": "Chandigarh",
    "district": "Chandigarh",
    "latitude": 30.7399738,
    "longitude": 76.7567368
  },
  {
    "city": "Chandrapur",
    "state": "Maharashtra",
    "district": "Chandrapur",
    "latitude": 19.9704597,
    "longitude": 79.3014845
  },
  {
    "city": "Chennai",
    "state": "Tamil Nadu",
    "district": "Chennai",
    "latitude": 13.0826802,
    "longitude": 80.2707184
  },
  {
    "city": "Chhapra",
    "state": "Bihar",
    "district": "Saran",
    "latitude": 25.7795649,
    "longitude": 84.7498886
  },
  {
    "city": "Chhatarpur",
    "state": "Madhya Pradesh",
    "district": "Chhatarpur",
    "latitude": 24.9163562,
    "longitude": 79.5811827
  },
  {
    "city": "Chhindwara",
    "state": "Madhya Pradesh",
    "district": "Chhindwara",
    "latitude": 22.057437,
    "longitude": 78.9381729
  },
  {
    "city": "Chikkamagallooru",
    "state": "Karnataka",
    "district": "Chikkamagallooru",
    "latitude": 13.315258,
    "longitude": 75.7754018
  },
  {
    "city": "Chikmagalur",
    "state": "Karnataka",
    "district": "Chikkamagaluru",
    "latitude": 13.315258,
    "longitude": 75.7754018
  },
  {
    "city": "Chilakaluripet",
    "state": "Andhra Pradesh",
    "district": "Guntur",
    "latitude": 16.0924301,
    "longitude": 80.1623948
  },
  {
    "city": "Chirkunda",
    "state": "Jharkhand",
    "district": "Dhanbad",
    "latitude": 23.747887,
    "longitude": 86.7868768
  },
  {
    "city": "Chirmiri",
    "state": "Chhattisgarh",
    "district": "Koriya",
    "latitude": 23.1879502,
    "longitude": 82.354162
  },
  {
    "city": "Chitradurga",
    "state": "Karnataka",
    "district": "Chitradurga",
    "latitude": 14.2305594,
    "longitude": 76.3984537
  },
  {
    "city": "Chittoor",
    "state": "Andhra Pradesh",
    "district": "Chittoor",
    "latitude": 13.217176,
    "longitude": 79.1003289
  },
  {
    "city": "Chittorgarh",
    "state": "Rajasthan",
    "district": "Chittorgarh",
    "latitude": 24.8887435,
    "longitude": 74.6269216
  },
  {
    "city": "Churu",
    "state": "Rajasthan",
    "district": "Churu",
    "latitude": 28.2920484,
    "longitude": 74.9617924
  },
  {
    "city": "Coimbatore",
    "state": "Tamil Nadu",
    "district": "Coimbatore",
    "latitude": 11.0168445,
    "longitude": 76.9558321
  },
  {
    "city": "Cooch Behar",
    "state": "West Bengal",
    "district": "Cooch Behar",
    "latitude": 26.3356861,
    "longitude": 89.445851
  },
  {
    "city": "Cuddalore",
    "state": "Tamil Nadu",
    "district": "Cuddalore",
    "latitude": 11.744699,
    "longitude": 79.7680243
  },
  {
    "city": "Cuttack",
    "state": "Odisha",
    "district": "Cuttack",
    "latitude": 20.462521,
    "longitude": 85.8829895
  },
  {
    "city": "Dadri",
    "state": "Uttar Pradesh",
    "district": "Gautam Buddha Nagar",
    "latitude": 28.5461902,
    "longitude": 77.55621
  },
  {
    "city": "Dahod",
    "state": "Gujarat",
    "district": "Dahod",
    "latitude": 22.8379314,
    "longitude": 74.2531465
  },
  {
    "city": "Daman",
    "state": "Dadra and Nagar Haveli and Daman and Diu",
    "district": "Daman",
    "latitude": 20.3973736,
    "longitude": 72.8327991
  },
  {
    "city": "Damoh",
    "state": "Madhya Pradesh",
    "district": "Damoh",
    "latitude": 23.8380986,
    "longitude": 79.4421731
  },
  {
    "city": "Dankuni",
    "state": "West Bengal",
    "district": "Hooghly",
    "latitude": 22.6808348,
    "longitude": 88.2929313
  },
  {
    "city": "Darbhanga",
    "state": "Bihar",
    "district": "Darbhanga",
    "latitude": 26.111868,
    "longitude": 85.896004
  },
  {
    "city": "Darjeeling",
    "state": "West Bengal",
    "district": "Darjeeling",
    "latitude": 27.0360066,
    "longitude": 88.2626751
  },
  {
    "city": "Datia",
    "state": "Madhya Pradesh",
    "district": "Datia",
    "latitude": 25.6653262,
    "longitude": 78.4609393
  },
  {
    "city": "Dausa",
    "state": "Rajasthan",
    "district": "Dausa",
    "latitude": 26.8931931,
    "longitude": 76.3375284
  },
  {
    "city": "Davangere",
    "state": "Karnataka",
    "district": "Davangere",
    "latitude": 14.4663438,
    "longitude": 75.9238397
  },
  {
    "city": "Deesa",
    "state": "Gujarat",
    "district": "Banaskantha",
    "latitude": 24.2585031,
    "longitude": 72.1906721
  },
  {
    "city": "Dehradun",
    "state": "Uttarakhand",
    "district": "Dehradun",
    "latitude": 30.3164945,
    "longitude": 78.0321918
  },
  {
    "city": "Dehri",
    "state": "Bihar",
    "district": "Rohtas",
    "latitude": 24.9277351,
    "longitude": 84.1909841
  },
  {
    "city": "Delhi",
    "state": "Delhi",
    "district": "Delhi",
    "latitude": 28.6139391,
    "longitude": 77.2090212
  },
  {
    "city": "Deoband",
    "state": "Uttar Pradesh",
    "district": "Saharanpur",
    "latitude": 29.6910213,
    "longitude": 77.6822442
  },
  {
    "city": "Deoghar",
    "state": "Jharkhand",
    "district": "Deoghar",
    "latitude": 24.4763201,
    "longitude": 86.6913222
  },
  {
    "city": "Deoria",
    "state": "Uttar Pradesh",
    "district": "Deoria",
    "latitude": 26.505358,
    "longitude": 83.784454
  },
  {
    "city": "Dewas",
    "state": "Madhya Pradesh",
    "district": "Dewas",
    "latitude": 22.9622672,
    "longitude": 76.0507949
  },
  {
    "city": "Dhamtari",
    "state": "Chhattisgarh",
    "district": "Dhamtari",
    "latitude": 20.7014999,
    "longitude": 81.5541579
  },
  {
    "city": "Dhanbad",
    "state": "Jharkhand",
    "district": "Dhanbad",
    "latitude": 23.7956531,
    "longitude": 86.4303859
  },
  {
    "city": "Dhanpuri",
    "state": "Madhya Pradesh",
    "district": "Shahdol",
    "latitude": 23.2307927,
    "longitude": 81.4690932
  },
  {
    "city": "Dhar",
    "state": "Madhya Pradesh",
    "district": "Dhar",
    "latitude": 22.6012922,
    "longitude": 75.3024655
  },
  {
    "city": "Dharmavaram",
    "state": "Andhra Pradesh",
    "district": "Anantapur",
    "latitude": 14.422733,
    "longitude": 77.721472
  },
  {
    "city": "Dholpur",
    "state": "Rajasthan",
    "district": "Dholpur",
    "latitude": 26.7025181,
    "longitude": 77.893391
  },
  {
    "city": "Dhubri",
    "state": "Assam",
    "district": "Dhubri",
    "latitude": 26.0206982,
    "longitude": 89.9743463
  },
  {
    "city": "Dhule",
    "state": "Maharashtra",
    "district": "Dhule",
    "latitude": 20.9042201,
    "longitude": 74.7748979
  },
  {
    "city": "Dhulian",
    "state": "West Bengal",
    "district": "Murshidabad",
    "latitude": 24.6706654,
    "longitude": 87.9481846
  },
  {
    "city": "Dibrugarh",
    "state": "Assam",
    "district": "Dibrugarh",
    "latitude": 27.4728327,
    "longitude": 94.9119621
  },
  {
    "city": "Dimapur",
    "state": "Nagaland",
    "district": "Dimapur",
    "latitude": 25.8629885,
    "longitude": 93.7536663
  },
  {
    "city": "Dindigul",
    "state": "Tamil Nadu",
    "district": "Dindigul",
    "latitude": 10.3673123,
    "longitude": 77.9802906
  },
  {
    "city": "Durg",
    "state": "Chhattisgarh",
    "district": "Durg",
    "latitude": 21.1904494,
    "longitude": 81.2849169
  },
  {
    "city": "Durgapur",
    "state": "West Bengal",
    "district": "Bardhaman",
    "latitude": 23.5204443,
    "longitude": 87.3119227
  },
  {
    "city": "Eluru",
    "state": "Andhra Pradesh",
    "district": "West",
    "latitude": 16.7106604,
    "longitude": 81.0952431
  },
  {
    "city": "Erode",
    "state": "Tamil Nadu",
    "district": "Erode",
    "latitude": 11.3410364,
    "longitude": 77.7171642
  },
  {
    "city": "Etah",
    "state": "Uttar Pradesh",
    "district": "Etah",
    "latitude": 27.5587505,
    "longitude": 78.662567
  },
  {
    "city": "Etawah",
    "state": "Uttar Pradesh",
    "district": "Etawah",
    "latitude": 26.784784,
    "longitude": 79.021451
  },
  {
    "city": "Faizabad",
    "state": "Uttar Pradesh",
    "district": "Faizabad",
    "latitude": 26.7732476,
    "longitude": 82.1441643
  },
  {
    "city": "Faridabad",
    "state": "Haryana",
    "district": "Faridabad",
    "latitude": 28.4089123,
    "longitude": 77.3177894
  },
  {
    "city": "Farrukhabad",
    "state": "Uttar Pradesh",
    "district": "Farrukhabad",
    "latitude": 27.3826126,
    "longitude": 79.5940544
  },
  {
    "city": "Fatehpur",
    "state": "Rajasthan",
    "district": "Sikar",
    "latitude": 27.9950204,
    "longitude": 74.9617924
  },
  {
    "city": "Fatehpur",
    "state": "Uttar Pradesh",
    "district": "Fatehpur",
    "latitude": 25.9200736,
    "longitude": 80.8099941
  },
  {
    "city": "Firozabad",
    "state": "Uttar Pradesh",
    "district": "Firozabad",
    "latitude": 27.1591006,
    "longitude": 78.3957574
  },
  {
    "city": "Firozpur",
    "state": "Punjab",
    "district": "Firozpur",
    "latitude": 30.9331348,
    "longitude": 74.6224755
  },
  {
    "city": "Gadag",
    "state": "Karnataka",
    "district": "Gadag",
    "latitude": 15.4324651,
    "longitude": 75.6380337
  },
  {
    "city": "Gandhidham",
    "state": "Gujarat",
    "district": "Kutch",
    "latitude": 23.075297,
    "longitude": 70.133673
  },
  {
    "city": "Gandhinagar",
    "state": "Gujarat",
    "district": "Gandhinagar",
    "latitude": 23.2156354,
    "longitude": 72.6369415
  },
  {
    "city": "Gangapur",
    "state": "Rajasthan",
    "district": "Sawai Madhopur",
    "latitude": 26.478446,
    "longitude": 76.732222
  },
  {
    "city": "Gangawati",
    "state": "Karnataka",
    "district": "Koppal",
    "latitude": 15.431874,
    "longitude": 76.5314817
  },
  {
    "city": "Gangtok",
    "state": "Sikkim",
    "district": "East Sikkim",
    "latitude": 27.3389356,
    "longitude": 88.6065035
  },
  {
    "city": "Gaya",
    "state": "Bihar",
    "district": "Gaya",
    "latitude": 24.7954523,
    "longitude": 84.999431
  },
  {
    "city": "Ghaziabad",
    "state": "Uttar Pradesh",
    "district": "Ghaziabad",
    "latitude": 28.6691565,
    "longitude": 77.4537578
  },
  {
    "city": "Ghazipur",
    "state": "Uttar Pradesh",
    "district": "Ghazipur",
    "latitude": 25.5840419,
    "longitude": 83.5770202
  },
  {
    "city": "Giridih",
    "state": "Jharkhand",
    "district": "Giridih",
    "latitude": 24.1821391,
    "longitude": 86.2869507
  },
  {
    "city": "Godhra",
    "state": "Gujarat",
    "district": "Panchmahal",
    "latitude": 22.7788044,
    "longitude": 73.6142795
  },
  {
    "city": "Gonda",
    "state": "Uttar Pradesh",
    "district": "Gonda",
    "latitude": 27.1339913,
    "longitude": 81.9618968
  },
  {
    "city": "Gondal",
    "state": "Gujarat",
    "district": "Rajkot",
    "latitude": 21.9619463,
    "longitude": 70.792297
  },
  {
    "city": "Gondia",
    "state": "Maharashtra",
    "district": "Gondia",
    "latitude": 21.4624491,
    "longitude": 80.2209773
  },
  {
    "city": "Gorakhpur",
    "state": "Uttar Pradesh",
    "district": "Gorakhpur",
    "latitude": 26.7605545,
    "longitude": 83.3731675
  },
  {
    "city": "Greater Noida",
    "state": "Uttar Pradesh",
    "district": "Gautam Budh Nagar",
    "latitude": 28.4743879,
    "longitude": 77.5039904
  },
  {
    "city": "Gudivada",
    "state": "Andhra Pradesh",
    "district": "Krishna",
    "latitude": 16.4410255,
    "longitude": 80.9926327
  },
  {
    "city": "Gudiyatham",
    "state": "Tamil Nadu",
    "district": "Vellore",
    "latitude": 12.9447361,
    "longitude": 78.8709019
  },
  {
    "city": "Gulbarga",
    "state": "Karnataka",
    "district": "Kalburgi",
    "latitude": 17.329731,
    "longitude": 76.8342957
  },
  {
    "city": "Guna",
    "state": "Madhya Pradesh",
    "district": "Guna",
    "latitude": 24.6348197,
    "longitude": 77.2979782
  },
  {
    "city": "Guntakal",
    "state": "Andhra Pradesh",
    "district": "Anantapur",
    "latitude": 15.1674091,
    "longitude": 77.3736238
  },
  {
    "city": "Guntur",
    "state": "Andhra Pradesh",
    "district": "Guntur",
    "latitude": 16.3066525,
    "longitude": 80.4365402
  },
  {
    "city": "Gurgaon",
    "state": "Haryana",
    "district": "Gurgaon",
    "latitude": 28.4594965,
    "longitude": 77.0266383
  },
  {
    "city": "Guwahati",
    "state": "Assam",
    "district": "Kamrup",
    "latitude": 26.1445169,
    "longitude": 91.7362365
  },
  {
    "city": "Gwalior",
    "state": "Madhya Pradesh",
    "district": "Gwalior",
    "latitude": 26.2182871,
    "longitude": 78.1828308
  },
  {
    "city": "Habra",
    "state": "West Bengal",
    "district": "North 24 Parganas",
    "latitude": 22.8488542,
    "longitude": 88.6639591
  },
  {
    "city": "Hajipur",
    "state": "Bihar",
    "district": "Vaishali",
    "latitude": 25.692562,
    "longitude": 85.208369
  },
  {
    "city": "Haldia",
    "state": "West Bengal",
    "district": "Purba Medinipur",
    "latitude": 22.0666742,
    "longitude": 88.0698118
  },
  {
    "city": "Haldwani",
    "state": "Uttarakhand",
    "district": "Nainital",
    "latitude": 29.2182644,
    "longitude": 79.5129767
  },
  {
    "city": "Hanumangarh",
    "state": "Rajasthan",
    "district": "Hanumangarh",
    "latitude": 29.614436,
    "longitude": 74.2858121
  },
  {
    "city": "Hapur",
    "state": "Uttar Pradesh",
    "district": "Hapur",
    "latitude": 28.7305798,
    "longitude": 77.7758825
  },
  {
    "city": "Hardoi",
    "state": "Uttar Pradesh",
    "district": "Hardoi",
    "latitude": 27.3986345,
    "longitude": 80.1316927
  },
  {
    "city": "Haridwar",
    "state": "Uttarakhand",
    "district": "Haridwar",
    "latitude": 29.9456906,
    "longitude": 78.1642478
  },
  {
    "city": "Harihar",
    "state": "Karnataka",
    "district": "Davanagere",
    "latitude": 14.5304566,
    "longitude": 75.8010962
  },
  {
    "city": "Hassan",
    "state": "Karnataka",
    "district": "Hassan",
    "latitude": 13.0068142,
    "longitude": 76.0995519
  },
  {
    "city": "Hathras",
    "state": "Uttar Pradesh",
    "district": "Hathras",
    "latitude": 27.6056212,
    "longitude": 78.0537813
  },
  {
    "city": "Hazaribagh",
    "state": "Jharkhand",
    "district": "Hazaribag",
    "latitude": 23.9966213,
    "longitude": 85.3691068
  },
  {
    "city": "Hindaun",
    "state": "Rajasthan",
    "district": "Karauli",
    "latitude": 26.7454967,
    "longitude": 77.0330481
  },
  {
    "city": "Hindupur",
    "state": "Andhra Pradesh",
    "district": "Anantapur",
    "latitude": 13.829069,
    "longitude": 77.491835
  },
  {
    "city": "Hinganghat",
    "state": "Maharashtra",
    "district": "Wardha",
    "latitude": 20.5505728,
    "longitude": 78.8411405
  },
  {
    "city": "Hisar",
    "state": "Haryana",
    "district": "Hisar",
    "latitude": 29.1491875,
    "longitude": 75.7216527
  },
  {
    "city": "Hoshangabad",
    "state": "Madhya Pradesh",
    "district": "Hoshangabad",
    "latitude": 22.744108,
    "longitude": 77.736967
  },
  {
    "city": "Hoshiarpur",
    "state": "Punjab",
    "district": "Hoshiarpur",
    "latitude": 31.5143178,
    "longitude": 75.911483
  },
  {
    "city": "Hospet",
    "state": "Karnataka",
    "district": "Bellary",
    "latitude": 15.2688542,
    "longitude": 76.3909241
  },
  {
    "city": "Hosur",
    "state": "Tamil Nadu",
    "district": "Krishnagiri",
    "latitude": 12.7409127,
    "longitude": 77.8252923
  },
  {
    "city": "Hubli",
    "state": "Karnataka",
    "district": "Dharwad",
    "latitude": 15.3647083,
    "longitude": 75.1239547
  },
  {
    "city": "Hyderabad",
    "state": "Telangana",
    "district": "Hyderabad",
    "latitude": 17.384934,
    "longitude": 78.486616
  },
  {
    "city": "Ichalkaranji",
    "state": "Maharashtra",
    "district": "Kolhapur",
    "latitude": 16.7090008,
    "longitude": 74.4560807
  },
  {
    "city": "Imphal",
    "state": "Manipur",
    "district": "Imphal West; Imphal East",
    "latitude": 24.8170111,
    "longitude": 93.9368439
  },
  {
    "city": "Indore",
    "state": "Madhya Pradesh",
    "district": "Indore",
    "latitude": 22.7195687,
    "longitude": 75.8577258
  },
  {
    "city": "Itanagar",
    "state": "Arunachal Pradesh",
    "district": "Papum Pare",
    "latitude": 27.081581,
    "longitude": 93.6027
  },
  {
    "city": "Itarsi",
    "state": "Madhya Pradesh",
    "district": "Hoshangabad",
    "latitude": 22.6054858,
    "longitude": 77.753544
  },
  {
    "city": "Jabalpur",
    "state": "Madhya Pradesh",
    "district": "Jabalpur",
    "latitude": 23.181467,
    "longitude": 79.9864071
  },
  {
    "city": "Jagdalpur",
    "state": "Chhattisgarh",
    "district": "Bastar",
    "latitude": 19.0740973,
    "longitude": 82.008014
  },
  {
    "city": "Jagtial",
    "state": "Telangana",
    "district": "Karimnagar",
    "latitude": 18.788321,
    "longitude": 78.913899
  },
  {
    "city": "Jaipur",
    "state": "Rajasthan",
    "district": "Jaipur",
    "latitude": 26.9124336,
    "longitude": 75.7872709
  },
  {
    "city": "Jalandhar",
    "state": "Punjab",
    "district": "Jalandhar",
    "latitude": 31.3260152,
    "longitude": 75.5761829
  },
  {
    "city": "Jalgaon",
    "state": "Maharashtra",
    "district": "Jalgaon",
    "latitude": 21.0076578,
    "longitude": 75.5626039
  },
  {
    "city": "Jalna",
    "state": "Maharashtra",
    "district": "Jalna",
    "latitude": 19.842614,
    "longitude": 75.894805
  },
  {
    "city": "Jalpaiguri",
    "state": "West Bengal",
    "district": "Jalpaiguri",
    "latitude": 26.5434772,
    "longitude": 88.7205256
  },
  {
    "city": "Jamalpur",
    "state": "Bihar",
    "district": "Munger",
    "latitude": 25.312717,
    "longitude": 86.4906091
  },
  {
    "city": "Jammu",
    "state": "Jammu and Kashmir",
    "district": "Jammu",
    "latitude": 32.726601,
    "longitude": 74.857031
  },
  {
    "city": "Jamnagar",
    "state": "Gujarat",
    "district": "Jamnagar",
    "latitude": 22.4707019,
    "longitude": 70.05773
  },
  {
    "city": "Jamshedpur",
    "state": "Jharkhand",
    "district": "East Singhbhum",
    "latitude": 22.8045665,
    "longitude": 86.2028754
  },
  {
    "city": "Jangipur",
    "state": "West Bengal",
    "district": "Murshidabad",
    "latitude": 24.4589833,
    "longitude": 88.1047287
  },
  {
    "city": "Jaunpur",
    "state": "Uttar Pradesh",
    "district": "Jaunpur",
    "latitude": 25.7490034,
    "longitude": 82.6987002
  },
  {
    "city": "Jehanabad",
    "state": "Bihar",
    "district": "Jehanabad",
    "latitude": 25.2139287,
    "longitude": 84.9895549
  },
  {
    "city": "Jetpur",
    "state": "Gujarat",
    "district": "Rajkot",
    "latitude": 21.761778,
    "longitude": 70.621101
  },
  {
    "city": "Jeypore",
    "state": "Odisha",
    "district": "Koraput",
    "latitude": 18.8606126,
    "longitude": 82.5510469
  },
  {
    "city": "Jhansi",
    "state": "Uttar Pradesh",
    "district": "Jhansi",
    "latitude": 25.4484257,
    "longitude": 78.5684594
  },
  {
    "city": "Jharsuguda",
    "state": "Odisha",
    "district": "Jharsuguda",
    "latitude": 21.8554375,
    "longitude": 84.0061661
  },
  {
    "city": "Jhumri Telaiya",
    "state": "Jharkhand",
    "district": "Koderma",
    "latitude": 24.4289365,
    "longitude": 85.5354724
  },
  {
    "city": "Jhunjhunu",
    "state": "Rajasthan",
    "district": "Jhunjhunu",
    "latitude": 28.1288747,
    "longitude": 75.3995089
  },
  {
    "city": "Jind",
    "state": "Haryana",
    "district": "Jind",
    "latitude": 29.3211153,
    "longitude": 76.3058328
  },
  {
    "city": "Jodhpur",
    "state": "Rajasthan",
    "district": "Jodhpur",
    "latitude": 26.2389469,
    "longitude": 73.0243094
  },
  {
    "city": "Jorhat",
    "state": "Assam",
    "district": "Jorhat",
    "latitude": 26.7465203,
    "longitude": 94.2025859
  },
  {
    "city": "Junagadh",
    "state": "Gujarat",
    "district": "Junagadh",
    "latitude": 21.522184,
    "longitude": 70.4578768
  },
  {
    "city": "Kadapa",
    "state": "Andhra Pradesh",
    "district": "Kadapa",
    "latitude": 14.4673541,
    "longitude": 78.8241339
  },
  {
    "city": "Kadayanallur",
    "state": "Tamil Nadu",
    "district": "Tirunelveli",
    "latitude": 9.0778543,
    "longitude": 77.3451861
  },
  {
    "city": "Kaithal",
    "state": "Haryana",
    "district": "Kaithal",
    "latitude": 29.7856734,
    "longitude": 76.3984537
  },
  {
    "city": "Kakinada",
    "state": "Andhra Pradesh",
    "district": "East",
    "latitude": 16.9890648,
    "longitude": 82.2474648
  },
  {
    "city": "Kalol",
    "state": "Gujarat",
    "district": "Gandhinagar",
    "latitude": 23.2463895,
    "longitude": 72.5086513
  },
  {
    "city": "Kamptee",
    "state": "Maharashtra",
    "district": "Nagpur",
    "latitude": 21.2275312,
    "longitude": 79.1900834
  },
  {
    "city": "Kanchipuram",
    "state": "Tamil Nadu",
    "district": "Kanchipuram",
    "latitude": 12.8341735,
    "longitude": 79.7036402
  },
  {
    "city": "Kannur",
    "state": "Kerala",
    "district": "Kannur",
    "latitude": 11.8744775,
    "longitude": 75.3703662
  },
  {
    "city": "Kanpur",
    "state": "Uttar Pradesh",
    "district": "Kanpur",
    "latitude": 26.447965,
    "longitude": 80.330572
  },
  {
    "city": "Kanthi",
    "state": "West Bengal",
    "district": "Midnapore East",
    "latitude": 21.7811343,
    "longitude": 87.7450379
  },
  {
    "city": "Kapurthala",
    "state": "Punjab",
    "district": "Kapurthala",
    "latitude": 31.367197,
    "longitude": 75.374504
  },
  {
    "city": "Karaikal",
    "state": "Puducherry",
    "district": "Karaikal",
    "latitude": 10.9254398,
    "longitude": 79.8380056
  },
  {
    "city": "Karaikudi",
    "state": "Tamil Nadu",
    "district": "Sivaganga",
    "latitude": 10.0731315,
    "longitude": 78.7801544
  },
  {
    "city": "Karauli",
    "state": "Rajasthan",
    "district": "Karauli",
    "latitude": 26.488323,
    "longitude": 77.0161436
  },
  {
    "city": "Karimnagar",
    "state": "Telangana",
    "district": "Karimnagar",
    "latitude": 18.438485,
    "longitude": 79.128931
  },
  {
    "city": "Karnal",
    "state": "Haryana",
    "district": "Karnal",
    "latitude": 29.6856929,
    "longitude": 76.9904825
  },
  {
    "city": "Kasaragod",
    "state": "Kerala",
    "district": "Kasaragod",
    "latitude": 12.5102239,
    "longitude": 74.9851678
  },
  {
    "city": "Kasganj",
    "state": "Uttar Pradesh",
    "district": "Kasganj",
    "latitude": 27.8129344,
    "longitude": 78.649785
  },
  {
    "city": "Kashipur",
    "state": "Uttarakhand",
    "district": "Udham Singh Nagar",
    "latitude": 29.2104232,
    "longitude": 78.9618845
  },
  {
    "city": "Katihar",
    "state": "Bihar",
    "district": "Katihar",
    "latitude": 25.542424,
    "longitude": 87.567953
  },
  {
    "city": "Katni",
    "state": "Madhya Pradesh",
    "district": "Katni",
    "latitude": 23.8308453,
    "longitude": 80.4072255
  },
  {
    "city": "Kavaratti",
    "state": "Lakshadweep",
    "district": "Lakshadweep",
    "latitude": 10.5593204,
    "longitude": 72.6358134
  },
  {
    "city": "Khair",
    "state": "Uttar Pradesh",
    "district": "Aligarh",
    "latitude": 27.9391956,
    "longitude": 77.8424456
  },
  {
    "city": "Khambhat",
    "state": "Gujarat",
    "district": "Anand",
    "latitude": 22.316748,
    "longitude": 72.624144
  },
  {
    "city": "Khamgaon",
    "state": "Maharashtra",
    "district": "Buldhana",
    "latitude": 20.707117,
    "longitude": 76.571995
  },
  {
    "city": "Khammam",
    "state": "Telangana",
    "district": "Khammam",
    "latitude": 17.247318,
    "longitude": 80.151443
  },
  {
    "city": "Khandwa",
    "state": "Madhya Pradesh",
    "district": "Khandwa",
    "latitude": 21.8257334,
    "longitude": 76.352571
  },
  {
    "city": "Khanna",
    "state": "Punjab",
    "district": "Ludhiana",
    "latitude": 30.697852,
    "longitude": 76.2112286
  },
  {
    "city": "Kharagpur",
    "state": "West Bengal",
    "district": "Paschim Medinipur",
    "latitude": 22.34601,
    "longitude": 87.2319753
  },
  {
    "city": "Khargone",
    "state": "Madhya Pradesh",
    "district": "Khargone",
    "latitude": 21.8335244,
    "longitude": 75.6149893
  },
  {
    "city": "Khatauli",
    "state": "Uttar Pradesh",
    "district": "Muzaffarnagar",
    "latitude": 29.2758596,
    "longitude": 77.7309012
  },
  {
    "city": "Khurja",
    "state": "Uttar Pradesh",
    "district": "Bulandshahr",
    "latitude": 28.2513538,
    "longitude": 77.8538797
  },
  {
    "city": "Kishanganj",
    "state": "Bihar",
    "district": "Kishanganj",
    "latitude": 26.0917422,
    "longitude": 87.9383822
  },
  {
    "city": "Kishangarh",
    "state": "Rajasthan",
    "district": "Ajmer",
    "latitude": 26.5870344,
    "longitude": 74.856397
  },
  {
    "city": "Kochi",
    "state": "Kerala",
    "district": "Ernakulam",
    "latitude": 9.9312328,
    "longitude": 76.2673041
  },
  {
    "city": "Kohima",
    "state": "Nagaland",
    "district": "Kohima",
    "latitude": 25.6585963,
    "longitude": 94.1053307
  },
  {
    "city": "Kolar",
    "state": "Karnataka",
    "district": "Kolar",
    "latitude": 13.1357446,
    "longitude": 78.1325611
  },
  {
    "city": "Kolhapur",
    "state": "Maharashtra",
    "district": "Kolhapur",
    "latitude": 16.7049873,
    "longitude": 74.2432527
  },
  {
    "city": "Kolkata",
    "state": "West Bengal",
    "district": "Kolkata",
    "latitude": 22.572646,
    "longitude": 88.363895
  },
  {
    "city": "Kollam",
    "state": "Kerala",
    "district": "Kollam",
    "latitude": 8.8932118,
    "longitude": 76.6141396
  },
  {
    "city": "Komarapalayam",
    "state": "Tamil Nadu",
    "district": "Namakkal",
    "latitude": 11.4466642,
    "longitude": 77.6943353
  },
  {
    "city": "Korba",
    "state": "Chhattisgarh",
    "district": "Korba",
    "latitude": 22.3594501,
    "longitude": 82.7500595
  },
  {
    "city": "Kota",
    "state": "Rajasthan",
    "district": "Kota",
    "latitude": 25.2138156,
    "longitude": 75.8647527
  },
  {
    "city": "Kothagudem",
    "state": "Telangana",
    "district": "Khammam",
    "latitude": 17.6335295,
    "longitude": 81.0395821
  },
  {
    "city": "Kothamangalam",
    "state": "Kerala",
    "district": "Ernakulam",
    "latitude": 10.0601903,
    "longitude": 76.6350827
  },
  {
    "city": "Kottayam",
    "state": "Kerala",
    "district": "Kottayam",
    "latitude": 9.5915668,
    "longitude": 76.5221531
  },
  {
    "city": "Kovilpatti",
    "state": "Tamil Nadu",
    "district": "Thoothukudi",
    "latitude": 9.1674144,
    "longitude": 77.8767442
  },
  {
    "city": "Krishnanagar",
    "state": "West Bengal",
    "district": "Nadia",
    "latitude": 23.4008744,
    "longitude": 88.5013962
  },
  {
    "city": "Kumbakonam",
    "state": "Tamil Nadu",
    "district": "Thanjavur",
    "latitude": 10.9616945,
    "longitude": 79.3881132
  },
  {
    "city": "Kurnool",
    "state": "Andhra Pradesh",
    "district": "Kurnool",
    "latitude": 15.8281257,
    "longitude": 78.0372792
  },
  {
    "city": "Lakhimpur",
    "state": "Uttar Pradesh",
    "district": "Lakhimpur Kheri",
    "latitude": 27.9490794,
    "longitude": 80.7824012
  },
  {
    "city": "Lakhisarai",
    "state": "Bihar",
    "district": "Lakhisarai",
    "latitude": 25.1673614,
    "longitude": 86.0988253
  },
  {
    "city": "Lalitpur",
    "state": "Uttar Pradesh",
    "district": "Lalitpur",
    "latitude": 24.6878597,
    "longitude": 78.4120206
  },
  {
    "city": "Latur",
    "state": "Maharashtra",
    "district": "Latur",
    "latitude": 18.4087934,
    "longitude": 76.5603828
  },
  {
    "city": "Lucknow",
    "state": "Uttar Pradesh",
    "district": "Lucknow",
    "latitude": 26.8466937,
    "longitude": 80.946166
  },
  {
    "city": "Ludhiana",
    "state": "Punjab",
    "district": "Ludhiana",
    "latitude": 30.900965,
    "longitude": 75.8572758
  },
  {
    "city": "Machilipatnam",
    "state": "Andhra Pradesh",
    "district": "Krishna",
    "latitude": 16.1905457,
    "longitude": 81.1361543
  },
  {
    "city": "Madanapalle",
    "state": "Andhra Pradesh",
    "district": "Chittoor",
    "latitude": 13.5603491,
    "longitude": 78.5036065
  },
  {
    "city": "Madurai",
    "state": "Tamil Nadu",
    "district": "Madurai",
    "latitude": 9.9252007,
    "longitude": 78.1197754
  },
  {
    "city": "Mahasamund",
    "state": "Chhattisgarh",
    "district": "Mahasamund",
    "latitude": 21.1091317,
    "longitude": 82.0979023
  },
  {
    "city": "Mahbubnagar",
    "state": "Telangana",
    "district": "Mahbubnagar",
    "latitude": 16.748788,
    "longitude": 78.003626
  },
  {
    "city": "Mahoba",
    "state": "Uttar Pradesh",
    "district": "Mahoba",
    "latitude": 25.2920964,
    "longitude": 79.8724168
  },
  {
    "city": "Mahuva",
    "state": "Gujarat",
    "district": "Bhavnagar",
    "latitude": 21.0902193,
    "longitude": 71.7563169
  },
  {
    "city": "Mainpuri",
    "state": "Uttar Pradesh",
    "district": "Mainpuri",
    "latitude": 27.2284986,
    "longitude": 79.0249516
  },
  {
    "city": "Makrana",
    "state": "Rajasthan",
    "district": "Nagaur",
    "latitude": 27.0285581,
    "longitude": 74.714621
  },
  {
    "city": "Malappuram",
    "state": "Kerala",
    "district": "Malappuram",
    "latitude": 11.0731819,
    "longitude": 76.0739999
  },
  {
    "city": "Malda",
    "state": "West Bengal",
    "district": "Malda",
    "latitude": 25.0108408,
    "longitude": 88.1410967
  },
  {
    "city": "Malegaon",
    "state": "Maharashtra",
    "district": "Malegaon",
    "latitude": 20.554554,
    "longitude": 74.525989
  },
  {
    "city": "Malerkotla",
    "state": "Punjab",
    "district": "Sangrur",
    "latitude": 30.5232076,
    "longitude": 75.8882508
  },
  {
    "city": "Mancherial",
    "state": "Telangana",
    "district": "Adilabad",
    "latitude": 18.868797,
    "longitude": 79.446944
  },
  {
    "city": "Mandsaur",
    "state": "Madhya Pradesh",
    "district": "Mandsaur",
    "latitude": 24.076836,
    "longitude": 75.0692952
  },
  {
    "city": "Mandya",
    "state": "Karnataka",
    "district": "Mandya",
    "latitude": 12.5221567,
    "longitude": 76.9009191
  },
  {
    "city": "Mangalore",
    "state": "Karnataka",
    "district": "South Canara",
    "latitude": 12.9141417,
    "longitude": 74.8559568
  },
  {
    "city": "Manjeri",
    "state": "Kerala",
    "district": "Malappuram",
    "latitude": 11.1202984,
    "longitude": 76.1199677
  },
  {
    "city": "Margao",
    "state": "Goa",
    "district": "South Goa",
    "latitude": 15.2832187,
    "longitude": 73.986191
  },
  {
    "city": "Mathura",
    "state": "Uttar Pradesh",
    "district": "Mathura",
    "latitude": 27.4924134,
    "longitude": 77.673673
  },
  {
    "city": "Mau",
    "state": "Uttar Pradesh",
    "district": "Mau",
    "latitude": 25.9496379,
    "longitude": 83.5586445
  },
  {
    "city": "Medininagar",
    "state": "Jharkhand",
    "district": "Palamu",
    "latitude": 24.0420432,
    "longitude": 84.0907246
  },
  {
    "city": "Meerut",
    "state": "Uttar Pradesh",
    "district": "Meerut",
    "latitude": 28.9844618,
    "longitude": 77.7064137
  },
  {
    "city": "Mehsana",
    "state": "Gujarat",
    "district": "Mehsana",
    "latitude": 23.5879607,
    "longitude": 72.3693252
  },
  {
    "city": "Midnapore",
    "state": "West Bengal",
    "district": "Paschim Medinipur",
    "latitude": 22.4308892,
    "longitude": 87.3214908
  },
  {
    "city": "Miryalaguda",
    "state": "Telangana",
    "district": "Nalgonda",
    "latitude": 16.862087,
    "longitude": 79.554051
  },
  {
    "city": "Mirzapur",
    "state": "Uttar Pradesh",
    "district": "Mirzapur",
    "latitude": 25.1336987,
    "longitude": 82.5644344
  },
  {
    "city": "Modinagar",
    "state": "Uttar Pradesh",
    "district": "Ghaziabad",
    "latitude": 28.8316307,
    "longitude": 77.5779592
  },
  {
    "city": "Moga",
    "state": "Punjab",
    "district": "Moga",
    "latitude": 30.8164603,
    "longitude": 75.1717093
  },
  {
    "city": "Mohali",
    "state": "Punjab",
    "district": "Mohali",
    "latitude": 30.7046486,
    "longitude": 76.7178726
  },
  {
    "city": "Moradabad",
    "state": "Uttar Pradesh",
    "district": "Moradabad",
    "latitude": 28.8386481,
    "longitude": 78.7733286
  },
  {
    "city": "Morbi",
    "state": "Gujarat",
    "district": "Morbi",
    "latitude": 22.8119895,
    "longitude": 70.8236195
  },
  {
    "city": "Morena",
    "state": "Madhya Pradesh",
    "district": "Morena",
    "latitude": 26.4933562,
    "longitude": 77.9909949
  },
  {
    "city": "Mormugao",
    "state": "Goa",
    "district": "South Goa",
    "latitude": 15.3874352,
    "longitude": 73.8154394
  },
  {
    "city": "Motihari",
    "state": "Bihar",
    "district": "East Champaran",
    "latitude": 26.6469624,
    "longitude": 84.9088938
  },
  {
    "city": "Mubarakpur",
    "state": "Uttar Pradesh",
    "district": "Azamgarh",
    "latitude": 26.0809431,
    "longitude": 83.2987576
  },
  {
    "city": "Mughalsarai",
    "state": "Uttar Pradesh",
    "district": "Chandauli",
    "latitude": 25.2814947,
    "longitude": 83.1198203
  },
  {
    "city": "Muktasar",
    "state": "Punjab",
    "district": "Muktsar",
    "latitude": 30.476681,
    "longitude": 74.511289
  },
  {
    "city": "Mumbai",
    "state": "Maharashtra",
    "district": "Mumbai",
    "latitude": 19.0759837,
    "longitude": 72.8776559
  },
  {
    "city": "Munger",
    "state": "Bihar",
    "district": "Munger",
    "latitude": 25.376505,
    "longitude": 86.476588
  },
  {
    "city": "Muradnagar",
    "state": "Uttar Pradesh",
    "district": "Ghaziabad",
    "latitude": 28.7703752,
    "longitude": 77.4988753
  },
  {
    "city": "Muzaffarnagar",
    "state": "Uttar Pradesh",
    "district": "Muzaffarnagar",
    "latitude": 29.4726817,
    "longitude": 77.7085091
  },
  {
    "city": "Muzaffarpur",
    "state": "Bihar",
    "district": "Muzaffarpur",
    "latitude": 26.1208876,
    "longitude": 85.3647201
  },
  {
    "city": "Mysore",
    "state": "Karnataka",
    "district": "Mysuru",
    "latitude": 12.2958104,
    "longitude": 76.6393805
  },
  {
    "city": "Nabadwip",
    "state": "West Bengal",
    "district": "Nadia",
    "latitude": 23.4036446,
    "longitude": 88.3676393
  },
  {
    "city": "Nadiad",
    "state": "Gujarat",
    "district": "Kheda",
    "latitude": 22.6915853,
    "longitude": 72.8633635
  },
  {
    "city": "Nagaon",
    "state": "Assam",
    "district": "Nagaon",
    "latitude": 26.3463713,
    "longitude": 92.6840426
  },
  {
    "city": "Nagapattinam",
    "state": "Tamil Nadu",
    "district": "Nagapattinam",
    "latitude": 10.7656082,
    "longitude": 79.8423888
  },
  {
    "city": "Nagaur",
    "state": "Rajasthan",
    "district": "Nagaur",
    "latitude": 27.1991222,
    "longitude": 73.740924
  },
  {
    "city": "Nagda",
    "state": "Madhya Pradesh",
    "district": "Ujjain",
    "latitude": 23.4454599,
    "longitude": 75.4169918
  },
  {
    "city": "Nagercoil",
    "state": "Tamil Nadu",
    "district": "Kanyakumari",
    "latitude": 8.1832857,
    "longitude": 77.4118996
  },
  {
    "city": "Nagina",
    "state": "Uttar Pradesh",
    "district": "Bijnor",
    "latitude": 29.4426409,
    "longitude": 78.4326638
  },
  {
    "city": "Nagpur",
    "state": "Maharashtra",
    "district": "Nagpur",
    "latitude": 21.1458004,
    "longitude": 79.0881546
  },
  {
    "city": "Najibabad",
    "state": "Uttar Pradesh",
    "district": "Bijnor",
    "latitude": 29.6127789,
    "longitude": 78.3446003
  },
  {
    "city": "Nalgonda",
    "state": "Telangana",
    "district": "Nalgonda",
    "latitude": 17.057358,
    "longitude": 79.268649
  },
  {
    "city": "Nanded",
    "state": "Maharashtra",
    "district": "Nanded",
    "latitude": 19.1382514,
    "longitude": 77.3209555
  },
  {
    "city": "Nandurbar",
    "state": "Maharashtra",
    "district": "Nandurbar",
    "latitude": 21.3755507,
    "longitude": 74.2427644
  },
  {
    "city": "Nandyal",
    "state": "Andhra Pradesh",
    "district": "Kurnool",
    "latitude": 15.4785694,
    "longitude": 78.4830934
  },
  {
    "city": "Narasaraopet",
    "state": "Andhra Pradesh",
    "district": "Guntur",
    "latitude": 16.2353506,
    "longitude": 80.0479039
  },
  {
    "city": "Nashik",
    "state": "Maharashtra",
    "district": "Nashik",
    "latitude": 19.9974533,
    "longitude": 73.7898023
  },
  {
    "city": "Navsari",
    "state": "Gujarat",
    "district": "Navsari",
    "latitude": 20.9467019,
    "longitude": 72.9520348
  },
  {
    "city": "Nawada",
    "state": "Bihar",
    "district": "Nawada",
    "latitude": 24.877299,
    "longitude": 85.538434
  },
  {
    "city": "Naya Raipur",
    "state": "Chhattisgarh",
    "district": "Raipur",
    "latitude": 21.1649932,
    "longitude": 81.7753055
  },
  {
    "city": "Neemuch",
    "state": "Madhya Pradesh",
    "district": "Neemuch",
    "latitude": 24.4763852,
    "longitude": 74.8624092
  },
  {
    "city": "Nellore",
    "state": "Andhra Pradesh",
    "district": "Nellore",
    "latitude": 14.4425987,
    "longitude": 79.986456
  },
  {
    "city": "Neyveli",
    "state": "Tamil Nadu",
    "district": "Cuddalore",
    "latitude": 11.5432364,
    "longitude": 79.4760133
  },
  {
    "city": "Nizamabad",
    "state": "Telangana",
    "district": "Nizamabad",
    "latitude": 18.673421,
    "longitude": 78.092593
  },
  {
    "city": "Noida",
    "state": "Uttar Pradesh",
    "district": "Noida",
    "latitude": 28.600032,
    "longitude": 77.351504
  },
  {
    "city": "Ongole",
    "state": "Andhra Pradesh",
    "district": "Prakasam",
    "latitude": 15.5057232,
    "longitude": 80.049922
  },
  {
    "city": "Ooty",
    "state": "Tamil Nadu",
    "district": "Nilgiri",
    "latitude": 11.4064138,
    "longitude": 76.6932438
  },
  {
    "city": "Orai",
    "state": "Uttar Pradesh",
    "district": "Jalaun",
    "latitude": 26.00864,
    "longitude": 79.4478858
  },
  {
    "city": "Osmanabad",
    "state": "Maharashtra",
    "district": "Osmanabad",
    "latitude": 18.1860659,
    "longitude": 76.0419409
  },
  {
    "city": "Ozhukarai",
    "state": "Puducherry",
    "district": "Puducherry",
    "latitude": 11.94888,
    "longitude": 79.712141
  },
  {
    "city": "Pakhanjore",
    "state": "Chhattisgarh",
    "district": "kanker",
    "latitude": 20.0399913,
    "longitude": 80.6271415
  },
  {
    "city": "Palakkad",
    "state": "Kerala",
    "district": "Palakkad",
    "latitude": 10.7867303,
    "longitude": 76.6547932
  },
  {
    "city": "Palanpur",
    "state": "Gujarat",
    "district": "Palanpur",
    "latitude": 24.174051,
    "longitude": 72.4330989
  },
  {
    "city": "Pali",
    "state": "Rajasthan",
    "district": "Pali",
    "latitude": 25.7710893,
    "longitude": 73.3234478
  },
  {
    "city": "Palwal",
    "state": "Haryana",
    "district": "Palwal",
    "latitude": 28.1487362,
    "longitude": 77.3320262
  },
  {
    "city": "Panaji",
    "state": "Goa",
    "district": "North Goa",
    "latitude": 15.4909301,
    "longitude": 73.8278496
  },
  {
    "city": "Panchkula",
    "state": "Haryana",
    "district": "Panchkula",
    "latitude": 30.6942091,
    "longitude": 76.860565
  },
  {
    "city": "Pandharpur",
    "state": "Maharashtra",
    "district": "Solapur",
    "latitude": 17.6745535,
    "longitude": 75.3237262
  },
  {
    "city": "Panipat",
    "state": "Haryana",
    "district": "Panipat",
    "latitude": 29.3909464,
    "longitude": 76.9635023
  },
  {
    "city": "Paramakudi",
    "state": "Tamil Nadu",
    "district": "Ramanathapuram",
    "latitude": 9.5483949,
    "longitude": 78.5916335
  },
  {
    "city": "Parbhani",
    "state": "Maharashtra",
    "district": "Parbhani",
    "latitude": 19.2609958,
    "longitude": 76.776665
  },
  {
    "city": "Parli",
    "state": "Maharashtra",
    "district": "Beed",
    "latitude": 18.8453169,
    "longitude": 76.5198462
  },
  {
    "city": "Patan",
    "state": "Gujarat",
    "district": "Patan",
    "latitude": 23.8493246,
    "longitude": 72.1266255
  },
  {
    "city": "Pathankot",
    "state": "Punjab",
    "district": "Pathankot",
    "latitude": 32.2643375,
    "longitude": 75.6421121
  },
  {
    "city": "Patiala",
    "state": "Punjab",
    "district": "Patiala",
    "latitude": 30.3397809,
    "longitude": 76.3868797
  },
  {
    "city": "Patna",
    "state": "Bihar",
    "district": "Patna",
    "latitude": 25.5940947,
    "longitude": 85.1375645
  },
  {
    "city": "Phagwara",
    "state": "Punjab",
    "district": "Kapurthala",
    "latitude": 31.2240198,
    "longitude": 75.7708013
  },
  {
    "city": "Phusro",
    "state": "Jharkhand",
    "district": "Bokaro",
    "latitude": 23.7622641,
    "longitude": 86.0020693
  },
  {
    "city": "Pilibhit",
    "state": "Uttar Pradesh",
    "district": "Pilibhit",
    "latitude": 28.6207939,
    "longitude": 79.8128649
  },
  {
    "city": "Pimpri-Chinchwad",
    "state": "Maharashtra",
    "district": "Pune",
    "latitude": 18.62354,
    "longitude": 73.807873
  },
  {
    "city": "Pithampur",
    "state": "Madhya Pradesh",
    "district": "Dhar",
    "latitude": 22.613252,
    "longitude": 75.6822899
  },
  {
    "city": "Pollachi",
    "state": "Tamil Nadu",
    "district": "Coimbatore",
    "latitude": 10.6572737,
    "longitude": 77.0106693
  },
  {
    "city": "Ponnani",
    "state": "Kerala",
    "district": "Malappuram",
    "latitude": 10.7677201,
    "longitude": 75.9259013
  },
  {
    "city": "Porbandar",
    "state": "Gujarat",
    "district": "Porbandar",
    "latitude": 21.6417069,
    "longitude": 69.6292654
  },
  {
    "city": "Port Blair",
    "state": "Andaman and Nicobar Islands",
    "district": "South Andaman",
    "latitude": 11.6233774,
    "longitude": 92.7264828
  },
  {
    "city": "Pratapgarh",
    "state": "Uttar Pradesh",
    "district": "Pratapgarh",
    "latitude": 25.8973038,
    "longitude": 81.9452981
  },
  {
    "city": "Proddatur",
    "state": "Andhra Pradesh",
    "district": "Kadapa",
    "latitude": 14.7491864,
    "longitude": 78.5531577
  },
  {
    "city": "Puducherry",
    "state": "Puducherry",
    "district": "Puducherry",
    "latitude": 11.9138598,
    "longitude": 79.8144722
  },
  {
    "city": "Pudukkottai",
    "state": "Tamil Nadu",
    "district": "Pudukkottai",
    "latitude": 10.379663,
    "longitude": 78.8208454
  },
  {
    "city": "Pune",
    "state": "Maharashtra",
    "district": "Pune",
    "latitude": 18.5204303,
    "longitude": 73.8567437
  },
  {
    "city": "Puri",
    "state": "Odisha",
    "district": "Puri",
    "latitude": 19.8133822,
    "longitude": 85.8314655
  },
  {
    "city": "Purnia",
    "state": "Bihar",
    "district": "Purnia",
    "latitude": 25.7771391,
    "longitude": 87.4752551
  },
  {
    "city": "Purulia",
    "state": "West Bengal",
    "district": "Purulia",
    "latitude": 23.3320779,
    "longitude": 86.365208
  },
  {
    "city": "Raebareli",
    "state": "Uttar Pradesh",
    "district": "Raebareli",
    "latitude": 26.2345298,
    "longitude": 81.2408689
  },
  {
    "city": "Raichur",
    "state": "Karnataka",
    "district": "Raichur",
    "latitude": 16.2120031,
    "longitude": 77.3439283
  },
  {
    "city": "Raiganj",
    "state": "West Bengal",
    "district": "Uttar Dinajpur",
    "latitude": 25.6185295,
    "longitude": 88.1255837
  },
  {
    "city": "Raigarh",
    "state": "Chhattisgarh",
    "district": "Raigarh",
    "latitude": 21.8974003,
    "longitude": 83.3949632
  },
  {
    "city": "Raipur",
    "state": "Chhattisgarh",
    "district": "Raipur",
    "latitude": 21.2513844,
    "longitude": 81.6296413
  },
  {
    "city": "Rajamahendravaram",
    "state": "Andhra Pradesh",
    "district": "East",
    "latitude": 17.0005383,
    "longitude": 81.8040345
  },
  {
    "city": "Rajapalayam",
    "state": "Tamil Nadu",
    "district": "Virudhunagar",
    "latitude": 9.451559,
    "longitude": 77.554355
  },
  {
    "city": "Rajkot",
    "state": "Gujarat",
    "district": "Rajkot",
    "latitude": 22.3038945,
    "longitude": 70.8021599
  },
  {
    "city": "Rajnandgaon",
    "state": "Chhattisgarh",
    "district": "Rajnandgaon",
    "latitude": 21.0971034,
    "longitude": 81.0302222
  },
  {
    "city": "Rajpura",
    "state": "Punjab",
    "district": "Patiala",
    "latitude": 30.483997,
    "longitude": 76.5939516
  },
  {
    "city": "Ramagundam",
    "state": "Telangana",
    "district": "Karimnagar",
    "latitude": 18.762412,
    "longitude": 79.473362
  },
  {
    "city": "Ramanagara",
    "state": "Karnataka",
    "district": "Ramnagar",
    "latitude": 12.7094487,
    "longitude": 77.2807423
  },
  {
    "city": "Ramgarh",
    "state": "Jharkhand",
    "district": "Ramgarh",
    "latitude": 23.6332243,
    "longitude": 85.5148735
  },
  {
    "city": "Rampur",
    "state": "Uttar Pradesh",
    "district": "Rampur",
    "latitude": 28.7893041,
    "longitude": 79.0249516
  },
  {
    "city": "Ranaghat",
    "state": "West Bengal",
    "district": "Nadia",
    "latitude": 23.17405,
    "longitude": 88.5639352
  },
  {
    "city": "Ranchi",
    "state": "Jharkhand",
    "district": "Ranchi",
    "latitude": 23.349649,
    "longitude": 85.334521
  },
  {
    "city": "Ranebennuru",
    "state": "Karnataka",
    "district": "Haveri",
    "latitude": 14.6113428,
    "longitude": 75.6382657
  },
  {
    "city": "Ratlam",
    "state": "Madhya Pradesh",
    "district": "Ratlam",
    "latitude": 23.3341696,
    "longitude": 75.0376325
  },
  {
    "city": "Rewa",
    "state": "Madhya Pradesh",
    "district": "Rewa",
    "latitude": 24.5372927,
    "longitude": 81.30418
  },
  {
    "city": "Rewari",
    "state": "Haryana",
    "district": "Rewari",
    "latitude": 28.1927631,
    "longitude": 76.6239423
  },
  {
    "city": "Rishikesh",
    "state": "Uttarakhand",
    "district": "Dehradun",
    "latitude": 30.0869281,
    "longitude": 78.2676116
  },
  {
    "city": "Robertsonpet",
    "state": "Karnataka",
    "district": "Kolar",
    "latitude": 12.9551189,
    "longitude": 78.2698622
  },
  {
    "city": "Rohtak",
    "state": "Haryana",
    "district": "Rohtak",
    "latitude": 28.8955152,
    "longitude": 76.606611
  },
  {
    "city": "Roorkee",
    "state": "Uttarakhand",
    "district": "Haridwar",
    "latitude": 29.8542626,
    "longitude": 77.8880002
  },
  {
    "city": "Rourkela",
    "state": "Odisha",
    "district": "Sundargarh",
    "latitude": 22.260423,
    "longitude": 84.8535844
  },
  {
    "city": "Rudrapur",
    "state": "Uttarakhand",
    "district": "Udham Singh Nagar",
    "latitude": 28.9875082,
    "longitude": 79.4141214
  },
  {
    "city": "Sagar",
    "state": "Madhya Pradesh",
    "district": "Sagar",
    "latitude": 23.838805,
    "longitude": 78.7378068
  },
  {
    "city": "Saharanpur",
    "state": "Uttar Pradesh",
    "district": "Saharanpur",
    "latitude": 29.967079,
    "longitude": 77.5510172
  },
  {
    "city": "Saharsa",
    "state": "Bihar",
    "district": "Saharsa",
    "latitude": 25.8834961,
    "longitude": 86.6006249
  },
  {
    "city": "Sahaswan",
    "state": "Uttar Pradesh",
    "district": "Budaun",
    "latitude": 28.0724712,
    "longitude": 78.7561222
  },
  {
    "city": "Sahibganj",
    "state": "Jharkhand",
    "district": "Sahibganj",
    "latitude": 25.2381216,
    "longitude": 87.6453592
  },
  {
    "city": "Salem",
    "state": "Tamil Nadu",
    "district": "Salem",
    "latitude": 11.664325,
    "longitude": 78.1460142
  },
  {
    "city": "Sambalpur",
    "state": "Odisha",
    "district": "Sambalpur",
    "latitude": 21.4668716,
    "longitude": 83.9811665
  },
  {
    "city": "Sambhal",
    "state": "Uttar Pradesh",
    "district": "Sambhal",
    "latitude": 28.5903614,
    "longitude": 78.5717631
  },
  {
    "city": "Sangli-Miraj-Kupwad",
    "state": "Maharashtra",
    "district": "Sangli",
    "latitude": 16.8541887,
    "longitude": 74.6049061
  },
  {
    "city": "Sardarshahar",
    "state": "Rajasthan",
    "district": "Churu",
    "latitude": 28.440419,
    "longitude": 74.493705
  },
  {
    "city": "Sasaram",
    "state": "Bihar",
    "district": "Rohtas",
    "latitude": 24.949036,
    "longitude": 84.0314295
  },
  {
    "city": "Satara",
    "state": "Maharashtra",
    "district": "Satara",
    "latitude": 17.6804639,
    "longitude": 74.018261
  },
  {
    "city": "Satna",
    "state": "Madhya Pradesh",
    "district": "Satna",
    "latitude": 24.6005075,
    "longitude": 80.8322428
  },
  {
    "city": "Sawai Madhopur",
    "state": "Rajasthan",
    "district": "Sawai Madhopur",
    "latitude": 26.0377772,
    "longitude": 76.3521514
  },
  {
    "city": "Sehore",
    "state": "Madhya Pradesh",
    "district": "Sehore",
    "latitude": 23.205012,
    "longitude": 77.0850781
  },
  {
    "city": "Seoni",
    "state": "Madhya Pradesh",
    "district": "Seoni",
    "latitude": 22.0868691,
    "longitude": 79.5434841
  },
  {
    "city": "Shahjahanpur",
    "state": "Uttar Pradesh",
    "district": "Shahjahanpur",
    "latitude": 27.883744,
    "longitude": 79.9122455
  },
  {
    "city": "Shamli",
    "state": "Uttar Pradesh",
    "district": "Shamli",
    "latitude": 29.4507575,
    "longitude": 77.3152116
  },
  {
    "city": "Shantipur",
    "state": "West Bengal",
    "district": "Nadia",
    "latitude": 23.2645399,
    "longitude": 88.4380966
  },
  {
    "city": "Shikohabad",
    "state": "Uttar Pradesh",
    "district": "Firozabad",
    "latitude": 27.110254,
    "longitude": 78.573784
  },
  {
    "city": "Shillong",
    "state": "Meghalaya",
    "district": "East Khassi Hills",
    "latitude": 25.578765,
    "longitude": 91.893187
  },
  {
    "city": "Shimla",
    "state": "Himachal Pradesh",
    "district": "Shimla",
    "latitude": 31.1048145,
    "longitude": 77.1734033
  },
  {
    "city": "Shimoga",
    "state": "Karnataka",
    "district": "Shivamogga",
    "latitude": 13.9299299,
    "longitude": 75.568101
  },
  {
    "city": "Shivpuri",
    "state": "Madhya Pradesh",
    "district": "Shivpuri",
    "latitude": 25.4357869,
    "longitude": 77.665066
  },
  {
    "city": "Siddipet",
    "state": "Telangana",
    "district": "Medak",
    "latitude": 18.101864,
    "longitude": 78.851948
  },
  {
    "city": "Sikar",
    "state": "Rajasthan",
    "district": "Sikar",
    "latitude": 27.6094,
    "longitude": 75.139911
  },
  {
    "city": "Silchar",
    "state": "Assam",
    "district": "Cachar",
    "latitude": 24.8332708,
    "longitude": 92.7789054
  },
  {
    "city": "Siliguri",
    "state": "West Bengal",
    "district": "Darjeeling; Jalpaiguri",
    "latitude": 26.7083818,
    "longitude": 88.4268741
  },
  {
    "city": "Silvassa",
    "state": "Dadra and Nagar Haveli and Daman and Diu",
    "district": "Dadra and Nagar Haveli",
    "latitude": 20.2762659,
    "longitude": 73.0083061
  },
  {
    "city": "Singrauli",
    "state": "Madhya Pradesh",
    "district": "Singrauli",
    "latitude": 24.200261,
    "longitude": 82.663989
  },
  {
    "city": "Sirsa",
    "state": "Haryana",
    "district": "Sirsa",
    "latitude": 29.5335931,
    "longitude": 75.0177029
  },
  {
    "city": "Sitamarhi",
    "state": "Bihar",
    "district": "Sitamarhi",
    "latitude": 26.5952476,
    "longitude": 85.4808393
  },
  {
    "city": "Sitapur",
    "state": "Uttar Pradesh",
    "district": "Sitapur",
    "latitude": 27.561892,
    "longitude": 80.688511
  },
  {
    "city": "Siwan",
    "state": "Bihar",
    "district": "Siwan",
    "latitude": 26.2196205,
    "longitude": 84.3566593
  },
  {
    "city": "Solapur",
    "state": "Maharashtra",
    "district": "Solapur",
    "latitude": 17.6599188,
    "longitude": 75.9063906
  },
  {
    "city": "Sonipat",
    "state": "Haryana",
    "district": "Sonipat",
    "latitude": 28.9287735,
    "longitude": 77.091281
  },
  {
    "city": "Sri Ganganagar",
    "state": "Rajasthan",
    "district": "Sri Ganganagar",
    "latitude": 29.912527,
    "longitude": 73.875212
  },
  {
    "city": "Srikakulam",
    "state": "Andhra Pradesh",
    "district": "Srikakulam",
    "latitude": 18.2969747,
    "longitude": 83.8967813
  },
  {
    "city": "Srinagar",
    "state": "Jammu and Kashmir",
    "district": "Srinagar",
    "latitude": 34.081413,
    "longitude": 74.807591
  },
  {
    "city": "Sujangarh",
    "state": "Rajasthan",
    "district": "Churu",
    "latitude": 27.7044756,
    "longitude": 74.4642861
  },
  {
    "city": "Sultanpur",
    "state": "Uttar Pradesh",
    "district": "Sultanpur",
    "latitude": 26.2647757,
    "longitude": 82.0727061
  },
  {
    "city": "Surat",
    "state": "Gujarat",
    "district": "Surat",
    "latitude": 21.1702401,
    "longitude": 72.8310607
  },
  {
    "city": "Surendranagar",
    "state": "Gujarat",
    "district": "Surendranagar",
    "latitude": 22.7201319,
    "longitude": 71.649536
  },
  {
    "city": "Suryapet",
    "state": "Telangana",
    "district": "Nalgonda",
    "latitude": 17.143132,
    "longitude": 79.630418
  },
  {
    "city": "Tadepalligudem",
    "state": "Andhra Pradesh",
    "district": "West",
    "latitude": 16.8138415,
    "longitude": 81.521241
  },
  {
    "city": "Tadipatri",
    "state": "Andhra Pradesh",
    "district": "Anantapur",
    "latitude": 14.9070274,
    "longitude": 78.0092703
  },
  {
    "city": "Tanda",
    "state": "Uttar Pradesh",
    "district": "Ambedkar Nagar",
    "latitude": 26.5432647,
    "longitude": 82.6645469
  },
  {
    "city": "Tenali",
    "state": "Andhra Pradesh",
    "district": "Guntur",
    "latitude": 16.2395313,
    "longitude": 80.6493396
  },
  {
    "city": "Tezpur",
    "state": "Assam",
    "district": "Sonitpur",
    "latitude": 26.6528495,
    "longitude": 92.7925592
  },
  {
    "city": "Thalassery",
    "state": "Kerala",
    "district": "Kannur",
    "latitude": 11.7532878,
    "longitude": 75.4928777
  },
  {
    "city": "Thanesar",
    "state": "Haryana",
    "district": "Kurukshetra",
    "latitude": 29.9696148,
    "longitude": 76.8197522
  },
  {
    "city": "Thanjavur",
    "state": "Tamil Nadu",
    "district": "Thanjavur",
    "latitude": 10.7869994,
    "longitude": 79.1378274
  },
  {
    "city": "Theni-Allinagaram",
    "state": "Tamil Nadu",
    "district": "Theni",
    "latitude": 10.010262,
    "longitude": 77.476819
  },
  {
    "city": "Thiruvananthapuram",
    "state": "Kerala",
    "district": "Thiruvananthapuram",
    "latitude": 8.5241391,
    "longitude": 76.9366376
  },
  {
    "city": "Thrissur",
    "state": "Kerala",
    "district": "Thrissur",
    "latitude": 10.5276416,
    "longitude": 76.2144349
  },
  {
    "city": "Tinsukia",
    "state": "Assam",
    "district": "Tinsukia",
    "latitude": 27.4921909,
    "longitude": 95.346775
  },
  {
    "city": "Tiruchengode",
    "state": "Tamil Nadu",
    "district": "Namakkal",
    "latitude": 11.378665,
    "longitude": 77.894975
  },
  {
    "city": "Tiruchirappalli",
    "state": "Tamil Nadu",
    "district": "Tiruchirappalli",
    "latitude": 10.7904833,
    "longitude": 78.7046725
  },
  {
    "city": "Tirunelveli",
    "state": "Tamil Nadu",
    "district": "Tirunelveli",
    "latitude": 8.7139126,
    "longitude": 77.7566523
  },
  {
    "city": "Tirupati",
    "state": "Andhra Pradesh",
    "district": "Chittoor",
    "latitude": 13.6287557,
    "longitude": 79.4191795
  },
  {
    "city": "Tirupur",
    "state": "Tamil Nadu",
    "district": "Tiruppur",
    "latitude": 11.1085242,
    "longitude": 77.3410656
  },
  {
    "city": "Tiruvannamalai",
    "state": "Tamil Nadu",
    "district": "Tiruvannamalai",
    "latitude": 12.2252841,
    "longitude": 79.0746957
  },
  {
    "city": "Tonk",
    "state": "Rajasthan",
    "district": "Tonk",
    "latitude": 26.1620402,
    "longitude": 75.7894716
  },
  {
    "city": "Tumkur",
    "state": "Karnataka",
    "district": "Tumakuru",
    "latitude": 13.345018,
    "longitude": 77.101945
  },
  {
    "city": "Tuticorin",
    "state": "Tamil Nadu",
    "district": "Thoothukkudi",
    "latitude": 8.7641661,
    "longitude": 78.1348361
  },
  {
    "city": "Udaipur",
    "state": "Rajasthan",
    "district": "Udaipur",
    "latitude": 24.595745,
    "longitude": 73.694395
  },
  {
    "city": "Udgir",
    "state": "Maharashtra",
    "district": "Latur",
    "latitude": 18.3942882,
    "longitude": 77.1126009
  },
  {
    "city": "Udupi",
    "state": "Karnataka",
    "district": "Udupi",
    "latitude": 13.3371151,
    "longitude": 74.746596
  },
  {
    "city": "Ujhani",
    "state": "Uttar Pradesh",
    "district": "Budaun",
    "latitude": 28.0003235,
    "longitude": 79.0051685
  },
  {
    "city": "Ujjain",
    "state": "Madhya Pradesh",
    "district": "Ujjain",
    "latitude": 23.1793013,
    "longitude": 75.7849097
  },
  {
    "city": "Unnao",
    "state": "Uttar Pradesh",
    "district": "Unnao",
    "latitude": 26.5393449,
    "longitude": 80.4878195
  },
  {
    "city": "Vadodara",
    "state": "Gujarat",
    "district": "Vadodara",
    "latitude": 22.3071588,
    "longitude": 73.1812187
  },
  {
    "city": "Valsad",
    "state": "Gujarat",
    "district": "Valsad",
    "latitude": 20.5992349,
    "longitude": 72.9342451
  },
  {
    "city": "Vaniyambadi",
    "state": "Tamil Nadu",
    "district": "Vellore",
    "latitude": 12.6950325,
    "longitude": 78.6218853
  },
  {
    "city": "Vapi",
    "state": "Gujarat",
    "district": "Valsad",
    "latitude": 20.3893155,
    "longitude": 72.9106202
  },
  {
    "city": "Varanasi",
    "state": "Uttar Pradesh",
    "district": "Varanasi",
    "latitude": 25.3176452,
    "longitude": 82.9739144
  },
  {
    "city": "Vasco",
    "state": "Goa",
    "district": "South Goa",
    "latitude": 15.3860329,
    "longitude": 73.8440398
  },
  {
    "city": "Vellore",
    "state": "Tamil Nadu",
    "district": "Vellore",
    "latitude": 12.9165167,
    "longitude": 79.1324986
  },
  {
    "city": "Veraval",
    "state": "Gujarat",
    "district": "Gir Somnath",
    "latitude": 20.91424,
    "longitude": 70.3611
  },
  {
    "city": "Vidisha",
    "state": "Madhya Pradesh",
    "district": "Vidisha",
    "latitude": 23.5251102,
    "longitude": 77.8081363
  },
  {
    "city": "Vijayawada",
    "state": "Andhra Pradesh",
    "district": "Krishna",
    "latitude": 16.5061743,
    "longitude": 80.6480153
  },
  {
    "city": "Viluppuram",
    "state": "Tamil Nadu",
    "district": "Viluppuram",
    "latitude": 11.9368897,
    "longitude": 79.4872619
  },
  {
    "city": "Visakhapatnam",
    "state": "Andhra Pradesh",
    "district": "Visakhapatnam",
    "latitude": 17.6868159,
    "longitude": 83.2184815
  },
  {
    "city": "Vizianagaram",
    "state": "Andhra Pradesh",
    "district": "Vizianagaram",
    "latitude": 18.1066576,
    "longitude": 83.3955506
  },
  {
    "city": "Warangal",
    "state": "Telangana",
    "district": "Warangal",
    "latitude": 17.975762,
    "longitude": 79.601212
  },
  {
    "city": "Wardha",
    "state": "Maharashtra",
    "district": "Wardha",
    "latitude": 20.745319,
    "longitude": 78.6021946
  },
  {
    "city": "Yamunanagar",
    "state": "Haryana",
    "district": "Yamunanagar",
    "latitude": 30.1290485,
    "longitude": 77.2673901
  },
  {
    "city": "Yavatmal",
    "state": "Maharashtra",
    "district": "Yavatmal",
    "latitude": 20.3887937,
    "longitude": 78.1204073
  },
  {
    "city": "Zirakpur",
    "state": "Punjab",
    "district": "Mohali",
    "latitude": 30.6425496,
    "longitude": 76.8173359
  }
]